名称,,名称のルビ,郵便番号,カテゴリ,住所,緯度,経度,電話番号,説明文,営業時間,定休日,URL,バリアフリー対応,wikidata-link
香りの家オランダ館(旧ヴォルヒン邸、伝統的建造物),,,'6500002,'2401,神戸市中央区北野町2-15-10,34.702201,135.190651,078-261-3330,北野のオランダ坂を登ると、1920年代のノスタルジックな雰囲気のオランダ館が見えてきます。オランダ館は大正中期の寄棟造り。(神戸市教育委員会指定No.48伝統的保存建造物)長い間オランダ総領事邸として使用され、1987年1月より一般公開されました。オランダのヴォーレンダム地方の民族衣装を着て記念撮影も出来ます。また、年齢や星座、好きな音楽・花・果物などのデータからあなたの個性にあったオリジナル香水が作れるので思い出づくりにぜひ訪れてください。,9:00～18:00 / 【冬季営業期間】1月～2月 10:00～17:00,なし,http://www.orandakan.shop-site.jp/,なし,
デンマーク館(旧ヨハン・フラウベルト邸),,,'6500002,'2401,神戸市中央区北野町2-15-12,34.702354,135.190549,078-261-3591,バイキング、アンデルセンなどのデンマークの歴史と文化を紹介するミュージアムとして、デンマーク王国大使館、デンマーク通商事務所の後援を受けオープンしたテーマ館。8～11世紀にスカンジナビア周辺から世界の海を巡ったバイキング船の大きな模型が展示されていたり、世界的童話作家アンデルセンの書斎が再現されていたり、見どころもたっぷり。メイドinデンマークのかわいいグッズはお土産におすすめです。,9:00～18:00 / 【冬季営業期間】1月～2月 10:00～17:00,なし,http://www.orandakan.shop-site.jp/,なし,
ウィーン・オーストリアの家(旧W.クンツェ邸),,,'6500002,'2401,神戸市中央区北野町2-15-18,34.702409,135.190794,078-261-3466,平成4年、オーストリア大使館、オーストリア通商代表部の後援で、オーストリアの文化や歴史に触れられるミュージアムとして開設。ウィーンの博物館風といわれる円筒形の建物に、女帝マリア・テレジアの肖像やロココ調の衣装などを展示し、宮廷文化の様子がしのばれます。また、オーストリアが生んだ偉大な音楽家モーツアルトを紹介し、彼が生きた18世紀の生活や風景を再現。作曲に使われたピアノの複製品(フォルテ・ピアノ)、直筆の楽譜や手紙など、ザルツブルグのモーツアルトミュージアムから寄贈された品々もみどころです。,9:00～18:00 / 【冬季営業期間】1月～2月 10:00～17:00,なし,http://www.orandakan.shop-site.jp/,なし,
竹中大工道具館,,たけなかだいくどうぐかん,'6510056,'2401,神戸市中央区熊内町7-5-1,34.706863,135.197532,078-242-0216,竹中大工道具館は日本で唯一の大工道具の専門博物館です。「人と自然をつなぐ、伝統と革新をつなぐ」をテーマに、2014年10月、新神戸駅前への移転、オープンしました。これまで収集した3万点余りの中から選りすぐった約1千点の大工道具のほか、吹き抜け空間に7メートルを超える高さでそびえたつ原寸大の唐招提寺金堂の柱と組み物、数寄屋の繊細な仕事が見えるスケルトン茶室など、現代の匠たちの手によって最高の職人技を詰め込んだ特別な模型を展示しています。また、「宮大工がいる博物館」というユニークな特色を生かし、新たに設けた木工室ではプロの技を間近に体感できるプログラムもご用意しています。,火～日　9:30～16:30（入館は16:00まで）,月(祝日の場合は翌日),http://dougukan.jp,,
風見鶏の館,,かざみどりのやかた,'6500002,'2401,神戸市中央区北野町3-13-3,34.701396,135.189475,078-242-3223,風見鶏の館(旧トーマス住宅)は、明治42年(1909年)頃にドイツ人貿易商ゴッドフリート・トーマス氏の自邸として建てられました。建物の設計に当ったのは、ドイツ人の建築家ゲオルグ・デ・ラランデ。レンガの外壁と尖塔の風見鶏は、北野異人館のシンボルとして人々に愛されています。昭和58年12月より昭和60年3月にかけて本格的な保存修理を行い、復原できる箇所は可能な限り元の姿に戻しています。現在は国の重要文化財に指定されています。,9:00～18:00（入館は17:45まで）,6月・2月の第1火(祝日の場合は翌日休),http://www.kobe-kazamidori.com/kazamidori/,,
ラインの館 ※工事のため休館中,,,'6500002,'2401,神戸市中央区北野町2-10-24,34.701126,135.191206,078-222-3403,大正4年(1915年)に建築されたラインの館。木造2階建下見板張りオイルペンキ塗りの建物は、開放されたベランダやベイ・ウィンドなど、明治時代のいわゆる異人館の様式をそのまま受け継いでいます。昭和53年の一般公開の際に愛称を公募した結果「ラインの館」となりました。1階に休憩室・展示室・土産物コーナーを設置し、2階では北野異人館街の歴史や震災関係の展示を行っています。,9:00～18:00,メンテナンスのため休館中です。H.284.1～全面休館。工事期間はH28～H30年を予定しております。,,,
うろこの家・うろこ美術館,,,'6500002,'2401,神戸市中央区北野町2-20-4,34.702959,135.190666,0120-888-581,神戸で最初に公開された神戸のシンボル的な異人館。外国人の高級借家で、外壁を飾る天然石のスレートが魚の鱗に見えることから「うろこの家」と呼ばれています。館内の随所にも意匠が凝らされ、重厚なアンティーク家具や調度品、古マイセンをはじめとする西洋の名磁器コレクションは必見。 また「うろこ美術館」では、ユトリロ、マチス等、自然主義から現在に至る西洋名画コレクションや、神戸を代表する安井賞作家・堀江優画伯の作品を常設展示。3階展望室からは神戸の街と港が一望できます。,4月～9月　9:30～18:00 / 10～3月 9:30～17:00,年中無休,http://kobe-ijinkan.net/,なし,http://www.wikidata.org/entity/Q11263124
異人館 パラスティン邸,,,'6500002,'2401,神戸市中央区北野町2-10-12,34.700932,135.190592,078-241-1132,ロシア人貿易商が居住していた異人館パラスティン邸は、大正初期に建てられた伝統的建造物です。テラス・館内共にペット同伴可能なことが口コミで広がり、今では全国各地から愛犬連れのお客様が訪れています。 ホームメイドケーキ、白パンサンドイッチ、仔牛の赤ワイン煮の他、シチューランチや復刻メニューなどのお食事メニューも充実。おいしいグルメを満喫しながら、異人館でのノスタルジックなひとときをお楽しみください。,11:00～18:00,火(祝日の場合は翌日),http://www.ijinkan.net/,なし,
萌黄の館,,もえぎのやかた,'6520002,'2401,神戸市中央区北野町3-10-11,34.700979,135.189256,078-222-3310,萌黄の館は、明治36年(1903)にアメリカ総領事の邸宅として建築され、昭和55年(1980)に国の重要文化財に指定されました。木造2階建て、下見板張りの異人館で、2つの異なった形のベイ・ウィンドー(張り出し窓)が特徴です。アラベスク風模様が施された階段・重厚なマントルピースなど贅沢な意匠が随所にみられ、2階のベランダからは神戸港まで見渡せる素晴らしい眺望が広がっています。<br><br>◆障がい者の方（下記の手帳をお持ちください）<br>　①身体障害者手帳、精神障害者保健福祉手帳、療育手帳、特定疾患医療受給者証、先天性血液凝固因子障害医療受給者証、小児慢性特定疾患承認書をお持ちの方：無料<br>　②身体障害者手帳(1級又は2級)、精神障害者保健福祉手帳(1級)、療育手帳をお持ちの方の介護人（原則1名)：無料<br><br>◆【すこやかカード】（神戸市老人福祉手帳）をお持ちの方：無料<br><br>◆シティー・ループ１日乗車券持参の方：280円,9:00～18:00,２月の第３水曜日・第３木曜日,http://www.city.kobe.lg.jp/culture/culture/institution/foreigner/sub3.html,,
山手八番館,,,'6500002,'2401,神戸市中央区北野町2-20-7,34.702787,135.190621,0120-888-581,山手八番館は、チューダー様式の三連式塔屋が特徴的の明治後期の異人館です。ピカソに影響を与えたアフリカのマコンデ彫刻、ロダン・ブールデル等の近代彫刻、レンブラントらの古典版画は見もの。他にも入口のステンドグラスや、願いが叶うといわれる“サターンの椅子”など、見どころの多い人気の館です。ぜひ一度訪れてみてください。,4月～9月　9:30～18:00 / 10～3月　9:30～17:00,年中無休,http://kobe-ijinkan.net,なし,http://www.wikidata.org/entity/Q11468702
北野外国人倶楽部,,,'6500002,'2401,神戸市中央区北野町2-18-2,34.703134,135.191493,0120-888-581,北野外国人倶楽部は、神戸港開港当時の社交倶楽部を再現した異人館です。館内にはブルボン王朝時代の木彫り暖炉、豪奢な1階バーカウンター、薪炭時代のオールドキッチンなどがあり、庭には19世紀の馬車、珍しい横穴式井戸と見所もたくさん。9館券(ツアーブック)をお持ちの方のみ、庭のミニチャペルにてドレスを着て記念撮影ができるうれしいサービスもあります。,4月～9月　9:30～18:00 / 10～3月　9:30～17:00,年中無休,http://kobe-ijinkan.net,,
坂の上の異人館(旧中国領事館),,,'6500002,'2401,神戸市中央区北野町2-18-2,34.703165,135.191593,0120-888-581,1940年、中国の政治家・王兆銘が南京に親日政府を樹立した一時期、中国領事館として使用されていた異人館です。数ある公開異人館の中でも唯一ここだけが、オリエンタルムードに浸れる東洋的異人館。館内の家具調度品・美術品は中国のもので統一され、当時の様子がしのばれます。西周時代の銅鐸や宋時代の青磁や焼きものに加え、紫檀に精微な装飾を施したサロン・セットなど、贅を極めた装飾は必見です。,4月～9月　9:30～18:00 / 10～3月　9:30～17:00,年中無休,http://kobe-ijinkan.net,なし,
ベンの家,,,'6500002,'2401,神戸市中央区北野町2-3-21,34.700929,135.191534,0120-888-581,英国の貴族であった冒険家ベン・アリソン氏の旧邸。数ある異人館の中でも建築の古さは屈指です。館内には、住人であったベン・アリソン氏が世界中を旅して集めた猛獣・珍獣・貴重な動物の剥製がズラリ。アメリカの国鳥に指定されている「白頭鷲」の雄姿、鯨の仲間「イッカク」の長大な歯、銀白色の特異な巨体の「ヌー」など迫力に満ち、なかでも巨大なポーラーベアーは圧巻です。,4月～9月　9:30～18:00 / 10～3月　9:30～17:00,年中無休,http://kobe-ijinkan.net,なし,
洋館長屋(仏蘭西館),,,'6500002,'2401,神戸市中央区北野町2-3-18,34.700862,135.191391,0120-888-581,元・外国人向けのアパートだった仏蘭西館は、2軒の洋館が左右対称に配置された風変りな異人館。館内はアールヌーヴォー調の家具や調度品など、フランス関係の展示物で統一されています。アールヌーヴォーの花形作家エミールガレ、ドーム兄弟のガラス工芸は特に質が高いので要チェック。バッグの人気ブランド“ルイ・ヴィトン”草創期の古いトランクは、古き良き時代の船旅を彷彿とさせます。,4月～9月　9:30～18:00 / 10～3月　9:30～17:00,年中無休,http://kobe-ijinkan.net,なし,
英国館,,,'6500002,'2401,神戸市中央区北野町2-3-16,34.700782,135.191203,0120-888-581,イギリス人による設計でイギリス人が住み続けた英国館(イングランド館)は、建築当時のまま保存されている、西部劇でもおなじみの典型的なコロニアル様式の洋館です。2階には小説に『シャーロックホームズの部屋』がロンドンに在るが如く忠実に再現されています。インバネスケープとディアストーカーでホームズに変身して館内をご自由に散策できます。17世紀バロック時代、19世紀ヴィクトリア時代の格調高い豪華な家具調度品が揃い、高級感あふれるバーカウンターには世界の名酒が1000種類も収められています。夜にはBAR「king of king's(キングオブキングス)」に変身。ゴージャスなムードの中で香り高い名酒を味わえ、ゆとりのある大人のひと時を楽しめます。,4月～9月　9:30～18:00 / 10～3月　9:30～17:00,年中無休,http://kobe-ijinkan.net,,
神戸トリックアート不思議な領事館,,,'6500002,'2401,神戸市中央区北野町2-10-7,34.700915,135.190861,0120-888-581,アミューズメント性のある「体験型」の異人館。神戸ビーフが！神戸スイーツが！トリックアートに大変身！子供から大人まで世代に関係なく絵画を見て・触って・撮って楽しめます。面白いお写真で神戸の想い出作りはいかがですか？カメラの準備をお忘れなく。,4月～9月　9:30～18:00 / 10～3月　9:30～17:00,年中無休,http://kobe-ijinkan.net,あり,
イタリア館(プラトン装飾美術館),,,'6500002,'2401,神戸市中央区北野町1-6-15,34.702431,135.192079,078-271-3346,イタリア館(プラトン装飾美術館)はイタリアを中心としたヨーロッパの18～19世紀の家具調度品、絵画彫刻等が展示されている異人館です。現在も実際に人が住んでいる異人館で、邸内の各部屋にミレー、コローなどの絵画や美術品が詰まったゴージャスな私邸です。 プールのある南庭では飲み物やランチが注文でき、特にマンマの手造りケーキや週末限定ランチは人気メニューです。,9:30～17:00,年中無休,,なし,
神戸北野美術館,,,'6500002,'2401,神戸市中央区北野町2-9-6,34.701254,135.191516,078-251-0581,神戸北野美術館は、歴史的建造物である明治31年(1898年)築の旧アメリカ領事館官舎を館施設としています。 1898年に建設された異人館で、戦後は1978年までアメリカ領事館官舎として使用されました。1995年の阪神・淡路大震災の翌年から神戸北野美術館として開館しています。 絵本作家永田萌の原画作品の常設展示をリニューアルし、2011年 4月より「モンマルトルの丘の画家たち ～神戸北野異人館街・パリ市モンマルトル地区　友好交流展～」を開催しています。 神戸北野異人館街の文化や歴史を紹介すると共に、その魅力を発信する美術館です。,9:30～17:30(入館17時まで),不定休(要・問合せ),,なし,
北野工房のまち,,,'6500004,'2401,神戸市中央区中山手通3-17-1 北野工房のまち,34.695563,135.18722,078-221-6868,トアロードに面して建つ「旧北野小学校」のレトロでモダンな校舎を活用した人気スポット。個性あふれる21の工房では、スイーツや神戸牛・コロッケ、日本酒など神戸ブランドのお買い物のほか、いろいろなクラフト体験も楽しめます。北野異人館や旧居留地・南京町にも徒歩圏内で、神戸観光の拠点としてもご利用下さい。,9:30～18:00,不定休、年末年始（12月27日～1月2日）,http://kitanokoubou.jp,車イス、オストメイト、ベビーベット対応トイレ、車イス貸出,http://www.wikidata.org/entity/Q17211142
SPACE11 DARVISH MUSEUM,,,'6500003,'2401,神戸市中央区山本通1-7-16 ダルビッシュ コート 3階,34.698886,135.191201,078-291-4515,大阪羽曳野の少年野球チームから、春夏の甲子園出場した東北高校、NPB北海道日本ハムファイターズ、そしてMLBテキサス・レンジャーズへ。日米で数々のタイトルを獲得し、進化を続けるダルビッシュ有のミュージアムが、神戸の北野にオープン!挑戦の軌跡を紹介するヒストリーゾーンをはじめ、レンジャーズのロッカールームを再現したコーナーや、WBC優勝シーンとレンジャーズでの投球シーンを再現した4Dリアルフィギュア、ダルビッシュ有と対戦するCGゲームなど、さまざまな角度から、ダルビッシュ有の魅力を体験できる。,10:00-18:00（最終受付時間17：30）,年末年始(水曜日),http://www.darvish-museum-space11.com,有り,
花と緑のまち推進センター,,,'6500006,'2401,神戸市中央区諏訪山町2-8（諏訪山公園内）,34.69461,135.179416,078-351-6756,神戸市の目指す花と緑に囲まれたまちづくりのコアとなるセンターです。花と緑に関する、イベントや展示・講習会や養成講座・コンクール・園芸相談・花壇管理・情報発信などあらゆることに携わっています。　大型イベント：花のフェスタこうべ、グリーンフェスタこうべ、花ハート神戸オープンガーデン、神戸菊花展　コンクール：花の絵コンクール、神戸まちなみ緑花コンクール、市民花壇コンクール、菊花展フォトコンテスト,9:00～17:00,月曜日（市民トイレは利用可）、12月29日～1月3日は全園閉園,http://www.kobe-park.or.jp/hanamidori/,ユニバーサルトイレ有り、2階講習室へは階段のみなので講習会へ参加される場合事前にお伝えいただき対応する。,
神戸ドールミュージアム,,,'6500021,'2402,神戸市中央区三宮町3-1-17,34.689377,135.190595,078-327-4680,神戸ドールミュージアムは、19世紀フランスの香りをただよわせる「アンティークビスクドール」と「オートマター(機会仕掛人形)」を中心にコレクションする、日本でも数少ないドールミュージアムです。西洋人形の歴史や文化などの情報も発信し、様々な角度からお人形をご覧いただけます。心ときめくアンティークドールとの出会いに、ぜひ訪れてください!,10:00～19:00（ミュージアム入館18時まで),水(祝日の場合は開館・翌日休み・年末年始),http://www.timeroman.com/,,http://www.wikidata.org/entity/Q11589757
神戸市役所1号館24階展望ロビー,,,'6508570,'2402,神戸市中央区加納町6-5-1,34.689486,135.195739,078-331-8181,フラワーロードに面した、「神戸市役所1号館」内にある無料展望スポット。南の海側からはポートアイランドやメリケンパークの景色が、北の山側からは北野町や六甲山系の景色が楽しめます。 海側ロビーには休憩スペースが設けられ、神戸の観光や国際交流に関するパネルなどを展示。同じフロアには、喫茶店とレストランもあります。,平日　8:15～22:00 / 土・日・祝　10:00～22:00,12月29日～1月3日は休み、設備点検日年1日,,,
神戸市危機管理センター防災展示室,,,'6500033,'2402,神戸市中央区江戸町97-1（神戸市役所4号館1階）,34.689764,135.194547,,,,,http://www.city.kobe.lg.jp/safety/prevention/preparation/cmc/,,
神戸市立相楽園,,こうべしりつそうらくえん,'6500004,'2403,神戸市中央区中山手通5-3-1,34.692394,135.182691,078-351-5155,相楽園は、小寺泰次郎氏の本邸に営まれた庭園で、明治18年頃から築造に着手し、明治末期に完成したものです。昭和16年から神戸市の所有となり、一般に公開されるようになりました。飛石や石橋を渡る池泉回遊式(ちせんかいゆうしき)の日本庭園は、まさに深山幽谷の景。蘇鉄園や樹齢500余年の大クスノキ、春に咲き乱れるツツジと秋の紅葉も見事です。重厚な正門と欧風建築が印象的な旧小寺家厩舎、船屋形、旧ハッサム住宅(いずれも重要文化財)のほか、茶室が庭園の景観と調和しています。,金～水　9:00～17:00　(最終入園時間は16:30),木(祝祭日開園、翌日休園),http://www.sorakuen.com/,,
KOBEとんぼ玉ミュージアム,,こうべとんぼだまみゅーじあむ,'6500034,'2404,神戸市中央区京町79,34.688577,135.193739,078-393-8500,KOBEとんぼ玉ミュージアムは、穴の開いたガラス玉「とんぼ玉」を中心に、古代～現代のランプワーク技法によるガラス工芸を展示するミュージアムです。作家やスタッフのデモンストレーション、ランプワーク技法によるとんぼ玉制作など体験メニューも充実で、思い出に残るお土産にもぴったり。「観る」「学ぶ」「創る」「買う」の楽しさに満ちあふれた、体験観光型ミュージアムです。,10:00～19:00,なし,http://www.lampwork-museum.com/,,
神戸市立博物館,,こうべしりつはくぶつかん,'6500034,'2404,神戸市中央区京町24,34.687271,135.192884,078-391-0035,昭和10年に建築された“旧横浜正金銀行”の建物を増改築し、昭和57年に開館。「国際文化交流、東西文化の接触と変容」を基本テーマに、国宝の「桜ヶ丘出土銅鐸・銅戈」、考古・歴史資料、南蛮・紅毛美術資料、古地図資料、ガラス関係資料など約7万点を収蔵しています。常設展では、神戸に焦点をあてながら、日本と外国との文化交流のようすを6つのテーマで展示。館蔵品を主体とした企画展や、基本テーマにそった特別展も実施しています。,9:30 - 17:30（土曜日は19:00）（入館は閉館の30分前まで）,月(祝祭日は開館、翌日休館)、年末年始は休館。<br/>その他、臨時休館日等、詳しくはお問い合わせください。,http://www.city.kobe.lg.jp,対応しています。,
兵庫県公館,,,'6508567,'2405,神戸市中央区下山手通4-4-1,34.690965,135.184591,078-362-3823,フランス・ルネサンス様式を持つこの建物は、建築家 山口半六の設計で、1902(明治35)年、4代目の県本庁舎として誕生しました。戦災により外壁を残して焼失しましたが、戦後2度の修復により明治の面影を色濃く残しながらも、現在は迎賓館と県政資料館の機能を併せ持つ兵庫県公館として、100年以上にわたる兵庫県の歴史を見つめています。,【県政資料館】月～金 9:00～17:00 / 土 10:00～16:00  【迎賓館(知事室、貴賓室など)】土曜のみ 10:00～16:00  ※平日に迎賓館の見学を希望される場合は、10名以上の団体でお申し込み下さい。,日 / 祝日(土曜除く),http://web.pref.hyogo.lg.jp/ac01/ac01_000000026.html,,
南京町,,,'6500023,'2406,神戸市中央区元町通・栄町通1～2,34.688019,135.188048,078-332-2896,横浜中華街、長崎新地中華街とともに日本三大チャイナタウンの一つに数えられる「南京町」。中華食材、雑貨、料理など多彩な店舗が軒を連ねる人気の観光エリアです。1月または2月に春節祭、9月または10月に中秋節など一年を通して多彩なイベントも開催されているので要チェック。まるでテーマパークのような異国情緒あふれる街の散策をぜひ楽しんでください。,店により異なる,店により異なる,http://www.nankinmachi.or.jp,,
巨大アートギャラリー＆アトリエ　神戸波止場町 TEN×TEN,,,'6500042,'2408,神戸市中央区波止場町6-5,34.684039,135.184285,078-351-1335,巨大アートギャラリー＆アトリエ神戸波止場町TEN×TENは、みなと神戸の新たな文化交流拠点。様々なアートや制作シーンを観覧したり、ワークショップに参加したり、若者はもちろん、ゆっくり時を過ごしたい大人やシルバー世代にもおすすめです。館内は、ワンフロアに60ブース以上が並ぶ巨大空間、造形・彫金・ガラス絵・伝統組子・アクセサリー・刺繍・絵画・マンガなど多彩なジャンルの作家たちが、アトリエ創作やギャラリー展示、販売などを行っています。館内のだまし絵や黄金イラストが描かれた「壁面カフェ」で味わえる、一杯立ての本格コーヒー（￥200）や神戸ドーナツも好評です。,11:00～18:00（入館は17:30まで）,水(祝日の場合は翌日),http://tenten.chu.jp/,あり,
神戸海洋博物館・カワサキワールド,,こうべかいようはくぶつかん　かわさきわーるど,'6500042,'2408,神戸市中央区波止場町2-2,34.682914,135.188285,078-327-8983,大海原を駈ける帆船の帆と波をイメージした白いスペースフレームの大屋根が特徴的な「神戸海洋博物館」は「海から港から神戸が始まり、未来に船出する。」をコンセプトに「神戸開港120年記念事業」としてオープン。船の仕組みやクルーズ客船の魅力、港の施設や役割、古の時より時代とともに移り変わる港と街の様子を、航海計器や船具の「実物」や「ジオラマ模型」「映像」「グラフィック」などでわかりやすく紹介しています。 また「阪神淡路大震災」で崩れたメリケン波止場の一部を「神戸港震災メモリアルパーク」として保存。震災で得た教訓を後世に伝えています。2006年より、神戸港の開港以来、その歴史とともに歩んできた川崎重工業が企業博物館「カワサキワールド」を隣接展開。,10:00～17:00(但し、入館は16:30まで),月曜日　(月曜日が祝日の場合は開館翌日振替休館),http://www.kobe-maritime-museum.com/,,
神戸華僑歴史博物館,,こうべかきょうれきしはくぶつかん,'6500024,'2408,神戸市中央区海岸通3-1-1,34.685954,135.187173,078-331-3855,神戸華僑歴史博物館では、神戸の地域史を華僑華人の視点で紹介しています。神戸開港(1868年)以来、神戸にやってきた華僑に関する活動や文化を、記録写真や文献、書画、美術品、生活用具などの貴重な資料で展示。国際貿易都市・神戸の発展に大きな役割を果たした華僑たちの、一般ではあまり知ることのない世界を垣間見ることができます。,10:00 - 17:00,日・祝・月・火,,,
ルミナス神戸2,,,'6500042,'2408,神戸市中央区波止場町5-6,34.680326,135.188386,078-333-8414,1930年代の豪華客船「ノルマンディ号」をモデルにした、国内最大級のレストラン船。アール・デコ調に統一された船内は、優雅な雰囲気が漂う贅沢な内装。上質な時空間の中で、神戸の街並みや明石海峡大橋のパノラマビューを満喫し、旬の食材を使った本格フランス料理を楽しむことができます。 記念日やお誕生日、船上貸切パーティーや船上ウェディングなど、様々なシーンで神戸での素敵なひとときをお過ごしください。,10:00～19:00,なし,https://www.luminouskobe.co.jp/,,
神戸シーバス　ファンタジー号,,こうべしーばす　ふぁんたじーごう,'6500042,'2409,神戸市中央区波止場町7-1,34.682241,135.184712,0120-370-764,みなとまち神戸のおしゃれな船上カフェ。ファンタジー号では、おいしいコーヒーを飲みながら海から見る神戸の街並みや、明石海峡大橋の遠望、潜水艦や大型船の建造風景がお楽しみいただけます。また、タイミングが良ければ飛行機の離発着風景や、豪華客船の入港風景などもご覧いただけます。みなとまち神戸で思い出に残る、45分間の贅沢なひとときをお楽しみください。,10:00～17:00(毎時00分発) 10:00、12:00、17:00※左記については繁忙期のみ運行。,不定休,,,
神戸　船の旅　コンチェルト,,こうべ　ふねのたび　こんちぇると,'6500044,'2409,神戸市中央区東川崎町1-6-1,34.680028,135.184504,078-360-5600,神戸船の旅「コンチェルト」は、五感でクルージングが楽しめる遊覧船。グルメと音楽を味わいながら、六甲の山並みや明石海峡大橋、海に浮かぶ神戸空港など、神戸ならではの贅沢な景色を満喫できます。船内レストランではクラシックや、ジャズの生演奏で心躍るクルージングを演出。中国料理界の最高位“中国烹任大師”の称号を持つ総料理長(日本でただ2人だけ)による新感覚広東中華を味わいながら、海上での優雅なひと時をお楽しみください。,10:00～19:00(コンチェルト予約センター),不定休,http://www.kobeconcerto.com,,
神戸ベイクルーズ（ﾛｲﾔﾙﾌﾟﾘﾝｾｽ・ｵｰｼｬﾝﾌﾟﾘﾝｽ）,,,'6500042,'2409,神戸市中央区波止場町7-1,34.682347,135.185179,078-360-0039,【ロイヤルプリンセス】関西最大級の豪華遊覧船。明石海峡大橋の遠望や神戸空港がご覧になれる40分コース。広いデッキや売店も完備しています。【オーシャンプリンス】 神戸港で初めての帆船型遊覧船。神戸港内外45分コースで、明石海峡大橋の遠望や神戸空港がご覧いただけます。 広々としたデッキでゆったりとしたクルージングをお楽しみください。,10:45～16:45（毎時15分発と45分発）　※11:45、12:15発便は休便、繁忙期は増便の場合もあり,なし,http://www.kobebayc.co.jp/,なし,
神戸アンパンマンこどもミュージアム&モール,,こうべあんぱんまんこどもみゅーじあむあんどもーる,'6500044,'2409,神戸市中央区東川崎町1-6-2,34.678522,135.184857,078-341-8855,テレビアニメ「それいけ！アンパンマン」の世界を見て・触れて楽しめる体験型のミュージアム。アンパンマンや仲間たちが登場するステージのほか、アニメでもおなじみの乗り物「アンパンマンごう」、すべり台、ボールパークなどの遊具や楽しい仕掛けがたくさんあります。1階にはアンパンマンの限定グッズやキャラクターパンを販売するショップのほか、カフェ、レストラン、子供のヘアサロンなど20店舗が集まる入場無料のショッピングモールがあります。ショッピングモールでもアンパンマンが登場するステージが毎日開催されています。,ミュージアム（2階）　10:00～18:00(最終入館17:00)  ショッピングモール（1階）　10:00～19:00,元日,http://www.kobe-anpanman.jp/,多目的トイレ（1F・2F）、スロープ、エレベーター有,
中突堤中央ターミナル（かもめりあ）,,,'6500042,'2409,神戸市中央区波止場町5,34.682512,135.185013,078-360-2740,中突堤中央ターミナルは、ポートタワーのある中突堤とハーバーランドの間に位置する中突堤西地区に1998年3月にオープンしました。神戸港めぐりや明石海峡方面への遊覧船が就航しています。同ターミナルは、すべての人にやさしいアメニティターミナルを目指しており、バリアフリーの構造になっています。 また、点字表示案内板、音声誘導システムなども設置されており、高齢者・障害者の皆さんにも利用しやすいターミナルとなっております。また、Wi-Fi設備も整っておりますのでご利用ください。,平日8:30～20:30、土日8:15～21:00,年中無休,,,
神戸市立ポートアイランドスポーツセンター,,,'6500046,'2411,神戸市中央区港島中町6-12-1,34.663116,135.210713,078-302-1031,神戸市立ポートアイランドスポーツセンターは、スポーツ教室や大会も開催される本格的なスポーツ施設。25m温水プール・50mの競泳プールが揃ったプール施設と、サブリンクも併設されたスケート施設があります。(営業期間等 要確認 / プールでは水泳帽子、スケートでは手袋を必ず着用してください) 25mプールは、年間を通しての利用が可能。お子さま用プールも併設しているので、家族みんなで楽しめます!（スケートリンクは冬季のみ、50ｍプールは夏期のみ）,25m温水プール:月～金 12:00～20:30(遊泳は20:15まで) / 土・日・祝 10:00～20:30(遊泳は20:15まで),水,http://www.kobe-psc.jp/,,
神戸空港ターミナル,,,'6500048,'2411,神戸市中央区神戸空港1,34.636888,135.228763,078-304-7777,2006年、国内97番目に開港した神戸空港と同時にオープンした「神戸空港ターミナル」。屋上の展望デッキからは飛行機や滑走路が間近に見られ、市街地と神戸の海、六甲山の眺望も楽しめます。 ターミナル内には、カフェやレストラン、神戸スイーツのお店も充実。各線三宮駅からポートライナーで約18分というアクセスのよさもあり、空港利用者だけでなく、地元の人々や観光客が訪れる新たなレジャースポットとして人気を集めています。,6:00-23:00,なし,,,
UCCコーヒー博物館,,ゆーしーしーこーひーはくぶつかん,'6500046,'2411,神戸市中央区港島中町6-6-2,34.665264,135.216871,078-302-8880,ポートアイランドにあるUCCコーヒー博物館は、日本で唯一のコーヒー専門博物館です。展示室では、コーヒーの起源、栽培、流通、加工、文化などを映像やパネルでご紹介。懐かしいUCCの企業CMも見ることができます。毎月テーマの変わるテイスティングコーナーや、自分だけのオリジナルローストコーヒーを持ち帰ることができる焙煎体験（1000円・要予約）など体験コーナーも人気。館内を見学後にコンピュータークイズに挑戦すると、顔写真入りのコーヒー博士認定証がもらえます。館内には世界のコーヒーが楽しめる喫茶室・コーヒーロード(別料金)や、ここでしか手に入らないオリジナルグッズを揃えたミュージアムショップも併設。,10:00～17:00(入館は16:30まで),月(祝日の場合は翌日）・年末年始,http://www.ucc.co.jp/museum/,トイレ、スロープ,
バンドー神戸青少年科学館,,,'6500046,'2411,神戸市中央区港島中町7-7-6,34.666026,135.218393,078-302-5177,神 戸で唯一のプラネタリウムがある施設、「バンドー神戸青少年科学館」は、「ふれる・つくる・つながる」をコンセプトに、体験型展示やワー クショップ、科学教室などを通して、科学や宇宙の不思議を体験しながら楽しく学べる科学館です。館内には6つの展示室があり、時空ホッパーや、ハンググライダーなどのアトラクションも体験できます。また、科学への興 味を高める「科学実験ショー」や、口径25㎝屈折大望遠鏡「たいよう」で、太陽の黒点やプロミネンスを観測することができる天体観測を毎日開催していま す。プラネタリウムは、「神戸でいちばん星空に近い場所」として、直径20mのドームに広がる星空空間に約2万5千個の星を映し出し、子どもから大人まで楽しめるオリジナル番組や、季節の星空解説を投映します。<br><br>2016年春にはプラネタリウムが全席リクライニングシートへ生まれ変わり、第4・ 第5展示室もリニューアルオープンしました。,月～木　9:30～16:30 /金・ 土・日・祝　9:30～19:00 / 春・夏休み(神戸市が定める小中学校の)9:30～19:00,水(祝日の場合は翌日),,,
ワールド記念ホール,,,'6500046,'2411,神戸市中央区港島中町6-12-2,34.664066,135.210121,078-302-8781,多彩なドラマを演出する、8000人収容の多目的ホール。スポーツから、音楽・展示・周年行事まで、あらゆるイベントに自在に対応。,-,催事により異なる,http://www.kobe-spokyo.jp/world-kobe/,,
神戸国際会議場,,,'6500046,'2411,神戸市中央区港島中町6丁目9-1,34.666234,135.21301,078-302-5200,神戸国際会議場には6ヶ国対応の同時通訳設備を完備した692名収容のメインホール、360名収容の国際会議室のほかレセプションホール、200名収容の会議室3室を含む全21室があります。,9:00 - 21:00（催事により異なる）,12/29～1/3（催事により異なる）,http://kobe-cc.jp/,スロープ、エレベーター、トイレ有,
アシックススポーツミュージアム,,,'6508555,'2411,神戸市中央区港島中町7丁目1-1,34.668785,135.215631,078-303-1329,「スポーツの進化を体感」いただく企業博物館です。トップ選手の使用したシューズなどを、選手のプロフィールと共に展示。トップアスリートの世界記録の凄さも体感していただけます。,10:00～17:00（16:30までにご入館下さい）,毎週日曜日、月曜日、祝日、夏季休暇、年末年始休暇,http://corp.asics.com/jp/about_asics/museum,有（車椅子トイレ・エレベーター・スロープ等ございます）,
神戸国際展示場,,,'6500046,'2411,神戸市中央区港島中町6丁目11-1,34.663719,135.212499,078-302-1020,"神戸国際展示場の展示面積合計は13,600m2。なかでも2号館コンベンションホール（3,800m2）は2分割も可能で展示会や会議・式典（最大4,000名収容）などスタイルを選ばずご利用いただけます。",9:00～17:00（催事により異なる）,12/29～1/3（催事により異なる）,http://kobe-cc.jp/,スロープ、エレベーター、トイレ有,http://www.wikidata.org/entity/Q11589839
神戸市立小磯記念美術館,,,'6580032,'2412,神戸市東灘区向洋町中5-7,34.692814,135.267214,078-857-5880,神戸に生まれ、生涯を通して神戸を制作の拠点とした洋画家・小磯良平の作品を展示する美術館。油彩・素描・版画など約2800点を入れ替え展示し、作品の解説を行うハイビジョンギャラリーも設置。小磯芸術を心ゆくまで楽しむことができます。また、美術館の中庭には小磯良平が40年間使ったアトリエを移築、復元しています。,10:00～17:00,月(月が祝休日の時はその翌日),http://www.city.kobe.lg.jp/koisomuseum/,,http://www.wikidata.org/entity/Q11589991
神戸ゆかりの美術館,,,'6580032,'2412,神戸市東灘区向洋町中2-9-1,34.688539,135.270826,078-858-1520,魅力あふれるKOBEに惹かれ、多くの芸術家がこの街に集い、内外の芸術界に大きな功績を残しました。神戸ゆかりの美術館では、現在活躍中の作家も含め、神戸で育まれたARTを広く紹介しています。 毎週土曜日には、学芸員による作品解説を交えた対話型のギャラリーツアーを開催。参加者が自由に意見を交換し、楽しみながら作品への理解を深めることができます。,10:00～17:00 (入館は16:30まで),月(祝・休日の場合はその翌日),http://www.city.kobe.lg.jp/culture/culture/institution/yukarimuseum/,,
シルクロード　絨毯ギャラリー,,,'6580032,'2412,神戸市東灘区向洋町中6-9,34.689228,135.268283,078-857-0415,手織り絨毯の専門店「絨毯ギャラリー」に併設されたミュージアム。日本で初めて、西はトルコ、イランから東は中国・日本まで、シルクロード絨毯の貴重なコレクションを集めています。 アンティークものからいわくつきの絨毯まで手に触れて間近に見る事ができ、遊牧民の生活や絨毯づくりの工程など、さまざまな関係資料も展示。シルクロード絨毯の全貌を理解することができます。,10:00～17:00,水,http://www.carpetandrug.net/museum.html,,
灘浜サイエンススクエア,,,'6570863,'2413,神戸市灘区灘浜東町2,34.702115,135.236581,078-882-8136,灘浜サイエンススクエアは、遊びながら科学や技術の不思議が体感できる学習施設です。製鉄・発電・エネルギー・環境をテーマにした館内約30点の展示には、解説や使い方の説明がほどんどないのが特徴。自然教室など各種イベントも開催しています。毎週土日・祝日の14:00からは「ものしりひろばの実験屋台」にて科学実験の実演も楽しめます。（第4日曜除く）,9:30～16:30（入館は16:00まで）,月(祝日の場合は翌平日),http://www.kobelco.co.jp/nadahama/science/,,
阪神・淡路大震災記念 人と防災未来センター,,,'6510073,'2413,神戸市中央区脇浜海岸通1-5-2,34.69841,135.215316,078-262-5050,人と防災未来センターは阪神・淡路大震災の経験と教訓を後世に継承し、国内外の災害による被害の軽減に貢献する施設です。西館4階の「1.17シアター」では特撮とCGを駆使して、あの瞬間を再現。大型映像と音響で地震のすさまじさを体感することができます。そのほかにも被災した時計などの現物資料や写真・映像資料、ジオラマ、証言記録などで震災から復興までをたどることができます。また、実験やゲームを通して防災・減災の大切さを学べるコーナー、東日本大震災被災地の3Dドキュメンタリー映像や阪神大水害の映像、南海トラフ巨大地震や首都直下型地震など将来発生する大規模災害の展示もあります。,【日・火～木】9:30～17:30(入館は1時間前まで)/【金・土】9:30～19:00(入館は1時間前まで)/【7月～9月】9:30～18:00(入館は1時間前まで),月(祝日の場合は翌日),http://www.dri.ne.jp/,,http://www.wikidata.org/entity/Q30266361
世良美術館,,,'6580047,'2413,神戸市東灘区御影2-5-21,34.723147,135.252308,078-822-6456,世良美術館は、世良臣絵(せらとみえ)が個人資産で設立した民間文化施設です。「女性がほっとできる空間」をコンセプトにした館内に、世良臣絵の作品や彼女が師事した小磯良平の水彩作品などを常設展示しています。自然光があふれるレンタルスペースは、サロンコンサートやギャラリースペースとしても利用可能。日常空間を忘れて、文化的な時をゆったりと過ごすことができます。,10:00～17:00(入館は16:30迄),月 / 火 / コンサート日 臨時休館あり,http://www.osk.3web.ne.jp/~amon4696/,,
兵庫県立美術館,,,'6510073,'2413,神戸市中央区脇浜海岸通1-1-1,34.699249,135.217853,078-262-0901,兵庫県立美術館では、兵庫ゆかりの作家による近現代作品を中心に約9000点を超えるの作品を所蔵。近代日本洋画を代表する小磯良平、金山平三の2人の画家の記念室を有し、話題性に富んだ国内外の作品を展示する特別展も開催しています。 美術館の設計は、日本を代表する建築家・安藤忠雄氏によるもの。海を間近に臨むユニークな外観は、周囲に設置された彫刻と共に屋外からも楽しむことができます。,10:00～18:00 / 特別展開催中の金・土曜　10:00～20:00,月(祝休日の場合は翌日),http://www.artm.pref.hyogo.jp/,あり,http://www.wikidata.org/entity/Q3329607
神戸市立王子動物園,,,'6570838,'2413,神戸市灘区王子町 3-1,34.709488,135.215289,078-861-5624,神戸市民のみならず、近隣都市からも多くの観光客が訪れる王子動物園。ジャイアントパンダとコアラの両方が見られる、日本で唯一の動物園です。園内では約130種の世界の動物たちを間近に観察することができ、「ホッキョクグマのドボンタイム」や「動物かみしばいとおはなし」など楽しいイベントも随時開催。春には桜の咲き乱れる名所としても知られ、お子さまだけでなくカップルや家族でも楽しめるスポットとして人気です。,3月～10月　9:00～17:00(入園は16:30まで)/11月～2月　9:00～16:30(入園は16:00まで),水(祝日の場合は開園),http://www.kobe-ojizoo.jp/,,http://www.wikidata.org/entity/Q11590062
櫻正宗記念館　櫻宴,,,'6580025,'2413,神戸市東灘区魚崎南町4-3-18,34.710184,135.27146,078-436-3030,灘五郷の中心、「魚崎郷」に位置する櫻正宗記念館  “櫻宴”。阪神・淡路大震災の試練を乗り越えて、正宗名発祥のアイデンティティを後世に遺すべく開設されました。2階の展示室では、櫻正宗創業300年余りの歴史を語る酒瓶・看板・ラベルなどのコレクションを展示。昔の酒造りの様子を収めた貴重な映像も放映しています。 レストランやカフェも併設され、ショップ “櫻蔵” では、別棟の酒蔵(櫻喜蔵)の搾りたてのお酒を量り売り。お土産にぴったりの地元名産品や特産品も取り揃えています。,10:00-22:00(物販・喫茶は19:00まで),火,http://www.sakuramasamune.co.jp/sakuraen/sakuraen_index.html,,
浜福鶴吟醸工房,,はまふくつるぎんじょうこうぼう,'6580025,'2413,神戸市東灘区魚崎南町4-4-6,34.709837,135.272863,078-411-8339,浜福鶴吟醸工房では、近代的な酒づくりの設備とその行程をガラス越しに見学できます。数ある酒蔵テーマ館のなかでも「もろみ仕込み」を見学できるのが大きな魅力。伝統の技に触れた後は、落ち着いた雰囲気の試飲コーナーで、清冽なしぼりたて生酒の試飲をどうぞ。直売コーナーでは、蔵元ならではお酒やオリジナル商品も販売しています。,火～日 10:00～17:00,月(祝日の場合は翌日),http://www.hamafukutsuru.co.jp/,,
神戸文学館,,,'6570838,'2413,神戸市灘区王子町3-1-2,34.709103,135.21322,078-882-2028,神戸文学館では、常設展示コーナー「みなと神戸の文学風景」で明治時代以降の神戸ゆかりの文学作品及び文学者の資料を時代ごとに展示している他、作家の足跡を紹介する「神戸文学地図」、神戸を舞台に活躍する作家の作品等1,平日 10:00～18:00 / 土・日・祝 9:00～17:00,水(祝日の場合は翌日),,,
菊正宗酒造記念館,,,'6580026,'2413,神戸市東灘区魚崎西町1-9-1,34.708612,135.267888,078-854-1029,国指定の重要有形民俗文化財「灘の酒造り道具」を展示する唯一の施設。丹波杜氏秘伝の「生もと造り」を今に伝えるお酒の博物館です。 搾りたての生酒をはじめ、いろいろなお酒の試飲が無料でできるので、じっくりお気に入りの一品を吟味することができます。,9:30～16:30 (入館は16:00まで),年末年始,http://www.kikumasamune.co.jp/kinenkan/,,
香雪美術館,,,'6580048,'2413,神戸市東灘区御影郡家2-12-1,34.723585,135.255889,078-841-0652,朝日新聞創設者 村山龍平(香雪)による、日本・東洋美術のコレクションを収蔵する私立美術館。重文18点・重美22点を筆頭に、絵画、書蹟、武具(刀剣・甲冑)、仏教美術、茶道具など幅広いジャンルの精髄を網羅。各回ごとにテーマを決め、展示公開しています。 また、村山家によって明治・大正期に建てられた洋館、日本館、茶室棟(通常は非公開)は、重要文化財に指定されています。,10:00～17:00 (入館は16:30まで),会期中無休　※但し展示替による臨時休館あり,http://www.kosetsu-museum.or.jp/,車いす用リフト（段差解消機）、階段昇降機を設置,
兵庫県立美術館王子分館（原田の森ギャラリー）,,ひょうごけんりつびじゅつかんおうじぶんかん（はらだのもりぎゃらりー）,'6570837,'2413,神戸市灘区原田通3丁目8-30,34.708598,135.214073,078-801-1591,兵庫県立美術館王子分館 原田の森ギャラリーは、平成14年4月に兵庫県立美術館「芸術の館」がHAT神戸に開館されたことにより、旧・兵庫県立近代美術館を活用し、その分館という位置づけで、平成１４年１０月１日に貸しギャラリーとしてオープンしました。旧・兵庫県立近代美術館は、昭和４５年に県政１００周年記念事業として誕生したメモリアルな建物であるとともに、都道府県立近代美術館としては全国で２番目に開館した美術館であり、我が国を代表する建築家の村野藤吾の作品でもあります。※耐震補強工事のため、平成29年3月31日（金）まで休館中です。なお、ギャラリー事務所は平常どおり業務を行っています（東館1階）。,10:00 - 18:00（ただし、耐震補強工事期間中は9:00～17:00）,月曜休館（祝日の場合は翌火曜が休館）,http://hyogo-arts.or.jp/harada/,車いす貸出し可能。障害者対応トイレあり,
横尾忠則現代美術館,,,'6570837,'2413,神戸市灘区原田通3-8-30,34.708541,135.2134,078-855-5607,横尾忠則現代美術館は、兵庫県西脇市出身の美術家、横尾忠則からの寄贈・寄託作品を適切な環境で保管し、多くの人に鑑賞していただくため、兵庫県立美術館王子分館（旧兵庫県立近代美術館、村野藤吾設計）の西館をリニューアルし、2012年11月に開館いたしました。,10:00～18:00（展覧会開催中の金・土は20時まで）※最終入場は閉館の30分前,月曜日（祝日の場合は翌日）,http://www.ytmoca.jp/,車椅子の貸出、2Fトイレ車椅子で利用可,http://www.wikidata.org/entity/Q11542451
HATなぎさの湯,,,'6500001,'2413,神戸市中央区脇浜海岸通1-3-3,34.689466,135.195729,,,,,,,
神戸市埋蔵文化財センター,,,'6512273,'2414,神戸市西区糀台6-1,34.714909,135.017872,078-992-0656,神戸市内には、五色塚古墳、大歳山遺跡などの学術上著名な遺跡が数多くあります。神戸市埋蔵文化財センターでは「よみがえる神戸の歴史」をテーマに、市内各所の遺跡で出土した遺物の調査・整理・収蔵を行っています。 常設展示室では、旧石器時代から中世に至るまでのさまざまな出土品を展示。収蔵スペースも展示公開されており、出土した資料を見学しながら神戸の歴史を身近に感じることができます。また、縄文土器作りや勾玉作りなどの体験講座や、年数回の企画展も開催しています。,火～日 10:00～17:00　臨時開館あり,月、祝日の翌日、年末年始、臨時休館あり,http://www.city.kobe.lg.jp/culture/culture/institution/center/,エレベーター、車いす利用者対応トイレ,http://www.wikidata.org/entity/Q11589921
こうべ環境未来館,,,'6512228,'2414,神戸市西区見津が丘1-9,34.741598,135.088543,078-995-3196,こうべ環境未来館は、神戸市資源リサイクルセンターに隣接する環境教育施設です。環境について、わかりやすく楽しみながら学習できます。ごみと資源の学者の展示(1F)や、再生品(自転車・家具)の展示(1F)などがあるほか、ビオトープ、太陽光発電設備、風力発電設備、電気自動車の急速充電器などもあります。,月～日(水は除く) 9:00～17:00,水,,,
神戸ワイナリー(農業公園),,,'6512204,'2414,神戸市西区押部谷町高和1557-1,34.733184,135.037754,078-991-3911,神戸市西区、見渡す限りのみどりに囲まれた小高い丘に、神戸市内で大切に育てられたぶどうが「神戸ワイン」に生まれ変わる場所、「神戸ワイナリー(農業公園)」があります。 自然豊かな園内は、陶芸館やバーベキュー広場などあり、大人から子供まで楽しめるちょっとしたテーマパークのよう。神戸ワインと共に、ゆったりと楽しい時間を過ごせることでしょう。,9:00～17:00,なし,,,
太山寺,,,'6512108,'2414,神戸市西区伊川谷町前開224,34.696579,135.067474,078-976-6658,本堂は神戸市内で唯一の国宝の建造物です。平面は密教本堂式と呼ばれる形態で、入母屋造、銅板葺きの造りになっています。桁行7間、梁間6間の大堂で、技法は和様を主としており、正面はすべて蔀戸を用いるなど、古い手法が守られています。ただ、唐様の木鼻をつけ、肘木の西側半分が唐様で、折衷形式を少し加えているのが特徴です。,8:30～17:00（12月から2月は16:30まで）,なし,,石段の手すり,http://www.wikidata.org/entity/Q3514066; http://www.wikidata.org/entity/Q11443909
大山寺温泉　なでしこの湯,,,'6512108,'2414,神戸市西区伊川谷町前開270-1,34.695716,135.063697,078-977-0261,,,,http://nadeshikonoyu.com/hotsprings.html,,
マリンピア神戸 さかなの学校,,,'6550036,'2415,神戸市垂水区海岸通12-4,34.624845,135.048189,078-706-5550,マリンピア神戸さかなの学校では、神戸を中心とした漁業を広く紹介し、漁業への親しみや理解を深める様々なイベントを実施しています。塩分を濃くした海水を土鍋で煮詰め、ミネラルたっぷりの塩を作る「塩づくり体験」や、神戸の海で養殖した新鮮な海苔を手すきして作る「乾のりづくり体験」(季節限定)、季節にあわせた工作をする「ものづくり体験」など、お子さまや家族みんなで楽しめるユニークな体験教室がいっぱい。手作りした塩や海苔は持ち帰ることができるので、お土産にもぴったりです。,10:00～17:00(ただし入館は16:30まで),水(祝日と重なる場合は翌日)、年末(12/28～12/31),http://www.marinpia.com/,,
神戸市立平磯海づり公園,,,'6550892,'2415,神戸市垂水区平磯1-1-66,34.626691,135.064071,078-753-3973,神戸市立平磯海づり公園は、どなたでも気軽に、安心して釣りが楽しめるフィッシングスポットです。園内には身障者用トイレ・優先釣り場・スロープなどを完備し、全長1,6:00～18:00（季節により異なる）,木(ただし祝日は開園、夏休み無休、12/29～1/3は休園),http://www.umiduri.com/,,
五色塚古墳,,,'6550035,'2415,神戸市垂水区五色山4-1,34.629532,135.045828,078-707-3131,千壺古墳とも呼ばれ、4世紀後半に築かれた兵庫県下最大の前方後円墳。築造当時の姿に復元され、雄大かつ高度な古代の土木技術を体感できます。また、淡路島や明石海峡大橋の眺めは抜群です。,9:00～17:00,12月～3月：月(祝日の場合は翌日) 　4月～11月：無休　年末年始休園,http://www.hi-net.zaq.ne.jp/bucdm105/,,
絵葉書資料館,,えはがきしりょうかん,'6550037,'2415,神戸市垂水区歌敷山1-7-20,34.634998,135.041934,078-705-1512,「絵葉書資料館」は、館長が30年以上にわたり収集してきた膨大な絵葉書コレクションの一部を、一般公開している世界的にも珍しい資料館。所蔵品は、絵葉書だけで1万枚以上。日本手彩色・美術・木版、海外のグリーティングや珍品など、明治後期～大正・昭和はじめにかけての国内外コレクションを常設展示しています。また、ユニークな視点で絵葉書をピックアップする企画展も定期的に開催。絵葉書が今に伝える古き良き風景・風俗・文化を通して、歴史を再発見してみてください。,木、金、土の11:00～17:30,日～水,http://www.ehagaki.org/,なし,
神戸市立須磨離宮公園,,,'6540018,'2416,神戸市須磨区東須磨1-1,34.653879,135.116307,078-732-6688,大阪湾が一望できる開放的で花と緑いっぱいの欧風噴水庭園には、「王侯貴族のバラ園」があり、春秋に約180種4000株のバラが咲き誇り、ボタンや花しょうぶ、紅葉、椿と四季を通じて楽しめます。また、フィールドアスレチック「子供の森・冒険コース」や「児童遊園」もあり、家族みんなで過ごせます。,9:00～17:00(入園は16:30まで) / ※イベント時に臨時の夜間開園あり,木(祝日の場合は翌日)・年末年始（12/29～1/3）,http://www.kobe-park.or.jp/rikyu/,一部対応（車いす用駐車場、車いす用トイレ、アシスト式車いすの貸出あり）,
須磨寺,,,'6540071,'2416,神戸市須磨区須磨寺町4-6-8,34.649247,135.111756,078-731-0416,真言宗須磨寺派の大本山。本尊の聖観世音菩薩をはじめ、無官の太夫・平敦盛の首塚や、敦盛首洗いの池、義経腰掛けの松など、源平ゆかりの史蹟が多く見られます。在原行平が創始したとされる一絃琴(須磨琴)が伝えられ、歴史・文化的にも価値のあるお寺です。,8:30～17:00,年中無休,http://www.sumadera.or.jp/,対応しています。エレベーター・スロープなど完備,
神戸市立須磨海づり公園,,こうべしりつすまうみづりこうえん,'6540076,'2416,神戸市須磨区一の谷町5丁目地先,34.634194,135.104508,078-735-2907,沖合い400メートルに突き出た釣台は、船釣り感覚で潮風に吹かれながら釣りを楽しむことができます。施設全体が大きな漁礁(魚の集まる場所)になっているので、四季を通じてさまざまな魚を釣ることができます。釣り台には一部(第3・4釣台)約80センチの柵を設置しているので、ご家族揃って、安心して釣りを楽しむことが出来ます。,4月・11月　6:00～18:00/ 5月　平日6:00～18:00、土日祝6:00～19:30/ 6月　平日6:00～18:00、土日祝6:00～20:00/ 7月～9月　平日6:00～19:00、土日祝6:00～20:00/ 10月　6:00～19:00/12月～3月　7:00～17:00,毎週火曜日、1月1日　ただし12月29日～31日、1月2日～3日は開演(祝日は開園、7月21日～8月31日は無休),http://www.umiduri.com/,,
六甲山カンツリーハウス,,,'6570101,'2417,神戸市灘区六甲山町北六甲4512-98,34.765075,135.24291,078-891-0366,六甲山カンツリーハウスは、国立公園「六甲山」の木々と緑に囲まれたレジャー施設です。園内にはパターゴルフやペダルボート等の自然をいかした遊具が多数あり、広大な芝生広場ではスポーツを楽しんだりワンちゃんとお散歩したり、思い思いの一日を満喫できます。ワンちゃんの開放エリアはHPにてご確認ください。自然に囲まれてゆっくりとした時間を過ごしたい方や、家族みんなのリフレッシュにおすすめです。,10:00～17:00（16:30最終受付）,"木(4/28,5/5,6/10~8/31,9/9~11/23は営業)及び4/11~4/13",,,
六甲山フィールド・アスレチック,,,'6570101,'2417,神戸市灘区六甲山町北六甲4512-98,34.767329,135.246692,078-891-0366,六甲山フィールド・アスレチックは、国立公園「六甲山」の木々と緑に囲まれた、全長1kmの本格的フィールドアスレチックコース。全40ポイントのアスレチックにはレベル別に2種類のスコアカードがあり、お子さまだけでなく家族みんなで楽しめる屋外レクリエーションスポットです。,10:00～17:00（15:30受付最終）,"木(4/28,5/5,7/21~8/31は営業)",,,
六甲高山植物園,,,'6570101,'2417,神戸市灘区六甲山町北六甲4512-150,34.761865,135.240472,078-891-1247,昭和8年(1933年)に開設され、高山植物園としては、わが国で長い歴史を誇る六甲高山植物園。世界の高山植物と寒冷地の植物を中心に、六甲山自生植物など約1,10:00～17:00(入園は16:30まで),9月に施設点検休あり。11月下旬～3月中旬は冬季休業,http://www.rokkosan.com/hana/,なし,
六甲ケーブル,,,'6570101,'2417,神戸市灘区高羽字西山8-2,34.737356,135.233567,078-861-5288,六甲山と神戸市街地を結ぶ六甲ケーブルは、昭和7年に開業した歴史あるケーブルカーです。六甲山の玄関口として、六甲ケーブル下駅から六甲山上駅までの約1.7kmを、約10分間で結びます。六甲山上駅には六甲山からの景色が一望できる天覧台(六甲山上展望台)があり、夜には1,7:10～21:10,なし,,,
六甲オルゴールミュージアム,,,'6570101,'2417,神戸市灘区六甲山町北六甲4512-145,34.761642,135.238351,078-891-1284,六甲オルゴールミュージアムは、六甲山上にあるオルゴールの博物館。主に19世紀から20世紀初頭にかけて製作されたヨーロッパやアメリカの様々なシリンダーやディスク・オルゴール、世界最大級のダンス・オルガンを含む種々の自動演奏楽器などが展示、紹介されています。 所蔵品は、オルゴール・コンサートの中でその音色をお楽しみいただけます。1時間に2種類のコンサートを行い、毎時間内容が変わります。,10:00～17:00 (最終受付16:20),9月1日（木）、8日（木）、11月24日(木)～3月16日（木）までの木曜日,http://www.rokkosan.com/museum/,エレベーター、車イス対応トイレあり。,
摩耶山天上寺,,,'6570105,'2417,神戸市灘区摩耶山町2-12,34.739025,135.204712,078-861-2684,国立公園摩耶山の山上にあり、豊かな自然に恵まれた摩耶山天上寺。四季折々の風景が楽しめる天空の舞台からは、晴れた日には淡路島・明石大橋・小豆島まで遠望できます。 全国で唯一の摩耶夫人堂が建つ天上寺の歴史は、大化2年(西暦646年)、孝徳天皇の勅願を受けたインドの高僧法道仙人が開創されたことに始まります。釈迦の生母で女人守護の仏でもある摩耶夫人は、特に安産・子授け・子育ての守護仏として信仰され、「摩耶山」という名の由来であると言われています。,9:00～17:00,なし,http://www.mayasan-tenjoji.jp/,,
六甲ガーデンテラス,,,'6570101,'2417,神戸市灘区六甲山町五介山1877-9,34.764056,135.246726,078-894-2281,六甲ガーデンテラスは、異国情緒漂うエリア内に4つの飲食店と5つのショップがあり、季節のグルメやショッピングが楽しめるレジャースポットです。展望スペースから見渡すパノラマの景色は圧巻!明石海峡から大阪平野、関西国際空港までが一望でき、夜には“1,9:30～21:00(季節・曜日・天候・店舗により異なる),なし(冬期は店舗により不定休)　※2017年3月7日、8日はメンテナンス休業,http://www.rokkosan.com/gt/,有り。一部石畳などあるため付き添いが必要です。,
神戸市立森林植物園,,,'6511102,'2417,神戸市北区山田町上谷上字長尾1-2,34.74081,135.178112,078-591-0253,六甲山の自然を活かした植物園で森と親しみ、世界の樹木などが楽しめます。新緑・つつじ・しゃくなげ・あじさい・もみじ散策などが見どころ。,9:00～17:00(入園16:30まで),水(祝日の場合翌日)、散策イベント期間中は無休,http://www.kobe-park.or.jp/shinrin/,なし,http://www.wikidata.org/entity/Q6424318
自然体感展望台 六甲枝垂れ,,,'6570101,'2417,神戸市灘区六甲山町五介山1877-9,34.764737,135.247263,078-894-2281,日本建築大賞など数々の受賞歴をもち、国内外で注目されている建築家三分一博志(さんぶいちひろし)により設計されました。 「六甲山上に立つ一本の大きな樹」がコンセプトの展望台では、夏の天然氷と風を利用した「冷風体験」や冬の「樹氷観測」など、六甲山の四季折々の自然を体感できる様々な試みがなされています。 また夜には、建物全体を覆う枝葉をイメージした檜のフレームに、1000万色以上の色彩表現が可能なLEDを照射する光の演出を実施しており、1000万ドルの夜景とももに、幻想的な光景が楽しめます。,3月中旬～1月中旬…10:00～21:00(最終受付20:30)  1月中旬～3月上旬…10:00～18:00(最終受付17:30)  ※天候等により変更の場合あり。,年中無休（2017年3月7日、8日はメンテナンス休業）,http://www.rokkosan.com/gt/,展望台内に階段なし。但し石畳のため付き添いが必要。,
神戸スカイアドベンチャーすずらん,,,'6511101,'2417,神戸市北区山田町小部字妙賀山11-1,34.735195,135.162434,078-597-7027,地上7mに設置されたアスレチックは、大人でも足が震えるほどの恐怖感を味わえるので、ゴールしたときの喜びや達成感は日常では味わえない感動です。 子供たちには試行錯誤しながら自由な発想で渡っていく学びや、最近当たり前のように体験できなくなった「冒険」をリアルに味わう事ができます。家族やカップルで参加すれば、会話は増え、笑顔があふれます。予約制で企業研修やチームビルディングも体験でき、通常の研修では味わえない一体感やチームの成長を体感出来ます。,9:00～18:00 最終予約受付 16:00 / 最終スタート 17:00 ※日没等により時間の変更あり,不定休。 ただし団体貸し切りやメンテナンスでご利用いただけない場合がございますので、電話でのご予約をおすすめします。,http://www.k-skyadv.com/,,
六甲山スノーパーク,,ろっこうさんすのーぱーく,'6570101,'2417,神戸市灘区六甲山町北六甲4512-98,34.766999,135.24192,078-891-0366,傾斜がゆるやかなゲレンデが子どもや初心者の練習にぴったりの「六甲山スノーパーク」。ペアリフトは親子で一緒に乗れるので、安心です。スキースクールでは指導員の丁寧な指導を下、スキーを基礎から学んで、楽しく上達しましょう。平日はもちろん、土日祝でも22時まで滑走できるので、お仕事帰りの練習も可能。レンタル備品も充実しているので、道具を持っていなくても大丈夫。スキー板やボードだけでなく、ウエアや短い板の「ファンスキー」もレンタルしています。,スキー 9：00～22：00スノーボード 16：00～22：00※　※平日（年末年始の間は除く）は9：00～22：00　スノーランド（雪ゾリ、雪あそび、専用ゲレンデ） 9:00～17:00,※冬季期間中無休,,,
天覧台,,,'6570101,'2417,神戸市灘区六甲山町一ヶ谷1-32,34.752018,135.237173,078-861-5288,六甲ケーブル下駅からレトロモダンな車両に乗って六甲山上駅へ。すぐそばにある天覧台は、昭和天皇の行幸でも有名な展望台。神戸はもちろん大阪平野や和歌山方面までワイドに広がる景色が一望でき、夜には1000万ドルの夜景が、圧倒的なスケール感で迫ってきます。,7:10～21:00,なし,,,
神戸映画資料館,,,'6530036,'2418,神戸市長田区腕塚町5-5-1-201,34.654365,135.146227,078-754-8039,神戸映画資料館では、映写機、ポスター、懐かしい雑誌、専門書などなど、映画に関するコレクションを見ることができます。また、併設のミニシアターではほぼ毎週末に上映会が開催され、懐かしい名画から最新のドキュメンタリーまで楽しめます。,金～火 10:30～18:00,水 / 木,www.kobe-eiga.net,,
神戸市水の科学博物館,,こうべしみずのかがくはくぶつかん,'6520004,'2418,神戸市兵庫区楠谷町37-1,34.693348,135.175132,078-351-4488,神戸市水の科学博物館は水をテーマにした博物館。3Dシアターの映像や水を使った理科の実験見学のほか、水について楽しく遊びながら学習できる展示物があります。建物はドイツルネッサンス風の重厚かつ優美な外観で、建築史上価値ある建物として高く評価されています。周辺は桜の名所としても有名です。,火～日　9:30～16:30,月(月が休日の場合が翌日),http://www.kobe-mizuhaku.net,,
蛭子神社,,,'6520806,'2418,神戸市兵庫区西柳原町5-20,34.669476,135.168155,078-651-0183,「柳原のえべっさん」の愛称で親しまれる蛭子神社。元禄5年(1691)、兵庫津の「寺社改帳」に神社のことが記されていることから、元禄以前から祀られていたことがわかります。 十日えびす大祭には、神戸中央卸売市場水産物卸協同組合より、大マグロやブリやタイなど海の幸がたくさん奉納されます。また9日宵えびすには淡路の人形浄瑠璃「戎舞」が奉納され、参拝者の楽しみの一つになっています。,9:00～17:00,なし,http://www.hyogo-ebisu.com/,,
長田神社,,,'6530812,'2418,神戸市長田区長田町3-1-1,34.671315,135.146643,078-691-0333,"商工業や産業の護り神として崇敬される御祭神「事代主大神」をお祀りし、地元の人々に「長田さん」の愛称で親しまれる長田神社。2001年で御鎮座1,800年を迎え、室町時代から続く古式「追儺式神事」(県指定無形文化遺産)、楠宮稲荷社裏の大楠の御神木、病気平癒や痔のご利益でも有名です。",開門・閉門　(4月～9月)5:00～18:00 / (10月～3月) 6:00～18:00  授与所　9:00～16:00,なし,mnagatajinja.jp/html,一部対応,
ノエビアスタジアム神戸,,,'6520855,'2418,神戸市兵庫区御崎町1-2-2,34.656671,135.169661,078-652-5656,ノエビアスタジアム神戸は、2002FIFAワールドカップ(TM)を機に完成した球技専用のスタジアムです。ヴィッセル神戸、INAC神戸レオネッサ、神戸製鋼コベルコスティラーズのホームスタジアムとして、サッカーやラグビーの数々の名勝負が繰り広げられてきました。観客席からピッチまでの距離が近く、臨場感あるスポーツ観戦が楽しめます。スタジアムには開閉式の屋根があり、天候に左右されず利用が可能。その為歌謡ショー、寄席、式典、様々な利用が可能です。,イベント・施設によって異なる,木,http://www.noevir-stadium.jp/,,
シューズプラザ,,くつのまちながた　しゅーずぷらざ,'6530835,'2418,神戸市長田区細田町7-1-9,34.659204,135.144593,078-646-5266,シューズプラザは、ケミカルシューズ発祥の地『くつのまちながた』のシンボル的な地域活性化拠点施設。長田の靴をメーカー直送で販売する「いい靴がいつでも安い」直営ショップのほか、足元から健康づくりやオーダーメイドの靴も取り扱う神戸長田周辺の人気スポットです。自分の足にぴったりな「お気に入りの一足」を見つけに、ぜひご来館ください。,10:00～19:00,水,http://www.shoesplaza.co.jp/,有（車椅子使用者利用トイレなど）,
孫文記念館(移情閣),,,'6550047,'2419,神戸市垂水区東舞子町2051,34.630962,135.034204,078-783-7172,歴史好きにはぜひ訪れて欲しいスポット。孫文記念館(移情閣)は、中国の革命家・政治家・思想家である孫文を顕彰する日本で唯一の施設です。日本と孫文、神戸と孫文の関わりについて紹介し、貴重な孫文直筆の書も展示しています。大正モダンの情緒あふれる移情閣は、明石海峡大橋を背景にした優美な外観だけでなく、贅を凝らした内装も必見です。八角三層の楼閣は日本最古の木骨コンクリートブロック建築で国と県の重要文化財に指定されています。,火～日　10:00～17:00(最終入館 　閉館30分前),月(祝日の場合は翌日休館),,,
橋の科学館,,,'6550047,'2419,神戸市垂水区東舞子町4-114,34.631623,135.032673,078-784-3339,橋の科学館では、明石海峡大橋をはじめとする本州四国架橋の建設に使われた最高水準の橋梁架橋技術を一堂に集め、わかりやすく紹介したサイエンスミュージアムです。3D立体映像シアターでは、最高水準の技術を迫力の3D映像で放映。くつろぎのスペースでは、雄大な明石海峡大橋や淡路島の景色をゆったりと眺めることができます。,9:15～17:00 / 【7/20～8/31】9:15～18:00 / 【12/1～2/28】9:15～16:30　※最終入館 閉館30分前,毎週月曜日（祝日の場合は開館し、翌日休）、12/29～1/3　※ゴールデンウィーク、7/20～8/31は無休,http://www.hashinokagakukan.jp/,車椅子無料貸し出し、身障者用トイレ、入口スロープあり,
舞子海上プロムナード,,,'6550047,'2419,神戸市垂水区東舞子町2051,34.630752,135.032979,078-785-5090,世界有数のつり橋「明石海峡大橋」の神戸市側に開設された舞子海上プロムナードは、海面からの高さ約47m、陸地から明石海峡へ約150m突出した延長約317mの回遊式遊歩道です。 海上47メートルの丸木橋は迫力満点!プロムナード入口1階には明石海峡大橋をわかりやすく解説した資料を展示し、8階展望ラウンジの展望カメラシステムでは、明石海峡大橋の主塔(約300m)にのぼった気分が味わえます。雄大な明石海峡大橋を眺めながら、海上遊歩道の散歩をゆっくりお楽しみください。,(通年) 9:30～18:00 / (ゴールデンウィーク・夏休み)9:30～19:00,8~9月無休 10~3月第2月曜日(祝日の場合は翌日),http://www.hyogo-park.or.jp/maiko/,,
神戸フルーツ・フラワーパーク,,,'6511522,'2420,神戸市北区大沢町上大沢2150,34.845773,135.191766,078-954-1010,神戸フルーツ・フラワーパークは北神戸の豊かな自然の中で中世ヨーロッパのルネッサンス様式の美しい建物や庭園を中心に数多くの施設が点在する「花と果実のテーマパーク」です。四季折々の花が咲き、夏から秋にかけてフルーツ狩りも楽しむことができます。園内には遊園地やバーベキュー場、源泉かけ流し(加温)天然温泉、ホテルなどがありますので家族でゆっくり自然を楽しみたい方にはおすすめです。,9:00～17:00 ※施設により異なる,施設により異なる,http://fruit-flowerpark.jp/,,
キリンビール神戸工場,,,'6511516,'2420,神戸市北区赤松台2-1-1,34.878487,135.17855,078-986-8001,キリンビール神戸工場では、ブルワリーツアーガイドの案内でビールの製造工程が楽しく学べます。工場見学のあとは、できたてビールの試飲をどうぞ!(見学は事前予約制、必ずHP又はお電話でご予約ください)隣接する「丘の上のビアレストラン」では、樽生ビールにぴったりな、地元食材を使用した味わいグルメも楽しめます。また、キリンビール神戸工場では環境への取り組みにも力を入れ、野性の動植物たちの一時的な避難場所となる「ビオトープ」を整備しています。カワバタモロコなど絶滅危惧種の保護・育成に取り組み、環境ツアーなども随時開催しています。,9:20～17:00 (工場見学:毎時00分/ 10分/ 30分/ 40分/ 最終ツアー15:40～),月(但し祝日の場合は開館),http://www.kirin.co.jp/entertainment/factory/kobe/,,
有馬玩具博物館,,,'6511401,'2421,神戸市北区有馬町797,34.797043,135.247874,078-903-6971,有馬玩具博物館には、豊かな発想とデザイン性に優れた良質なおもちゃが、国内外から集められています。約4000点のコレクションを、3階から6階までの展示室でテーマごとに紹介。5階のプレイスペースでは、木のおもちゃやゲームを実際に触って遊ぶことができます。博物館は、入館当日に限り終日出入りが自由です。気に入ったおもちゃを見つけたら、何度でも楽しんでいただけます。,9:30～18:00(最終入館17:30),不定休(お問い合わせください),http://www.arima-toys.jp/,,
切手文化博物館,,,'6511401,'2421,神戸市北区有馬町663-3,34.798766,135.250943,078-904-0024,切手文化博物館は、郵便創業時から現代まで140余年の間に発行された普通切手・記念切手等を網羅した、切手の常設博物館です。日本最初の切手「龍文切手」や、日本切手の中で最も貴重な「手彫切手」、明治時代に実際の郵便作業に用いられた品々など、ユニークなコレクションの数々を展示。期間限定の特別展も随時開催され、江戸時代の趣ある「土蔵造り」の館内で、切手や郵便文化の奥深い魅力を楽しめます。,10:00～16:00　(入館は15:30まで),火(祝日の場合は翌日),http://www.kitte-museum-arima.jp/,あり,
有馬本温泉　金の湯,,,'6511401,'2421,神戸市北区有馬町833,34.796785,135.247864,078-904-0680,有馬の名物湯・金泉が楽しめる外湯で、古来から由緒ある元湯として歴史を刻んできた名湯が堪能できます。有馬ファンの方はぜひ、平日回数券(11枚綴り￥5500)をご利用ください。(土日祝日は差額￥100をプラスして利用できます)。毎月第2水曜日はレディースデイ(対象:大人女性)、第4水曜日はシルバーデイ(対象:65歳以上、証明書要)で、対象の方は入浴料金半額のうれしいサービスがあります。,8:00～22:00(入館は21:30まで),第2・4火 / 1月1日,,,
有馬温泉 太閤の湯,,,'6511401,'2421,神戸市北区有馬町池の尻292-2,34.797891,135.251318,078-904-2291,"7,000㎡の敷地面積を誇る有馬最大の日帰り入浴施設。当地ゆかりの武将、太閤秀吉が愛用した蒸し風呂や岩風呂を復元したものなど男女あわせて26種ものお風呂と岩盤浴で日本三大名湯が楽しめます。湯上りにはレストランやフードコートでグルメを満喫。ボディケアやあかすりなど癒しのメニューも充実しています。タオルセットと館内着付なので手ぶらで気軽に立ち寄れます。",10:00～23:00(最終受付22:00),不定休につき詳細はお問い合わせください,www.taikounoyu.com,2016年3月1日現在 出来ておりません,
有馬ます池,,,'6511401,'2421,神戸市北区有馬町1688-2,34.790972,135.244591,078-904-0309,手ぶらで訪れて気軽にニジマス（子マス）釣りが楽しめるフィッシングスポット。料理とのセット営業で、園内にある「ますの茶屋」でカラアゲ、塩焼きをご賞味いただけます。エサは団子状のネリエサで、女の子にも安心。童心にかえったデートを楽しむカップルや、食欲旺盛で食いつきの良いニジマスを相手に、はじめての釣り体験に挑戦のファミリーに人気です。夏季はつかみどりイベントを実施。,9:00～17:00(入園は16時までに),水・木(12月から2月は水・木・金)　※祝日は営業し、後日休園します。※春・夏休み、GWは無休。,http://www.shintetsu.co.jp/kanko/masuike/,,
御祖師庵,,,'6511401,'2421,神戸市北区有馬町1643,34.795808,135.248186,078-904-0650,僧行基が開祖の名刹温泉寺の境内にある資料館。寺の由来や温泉の歴史を紹介しています。,9:00～16:30,年中無休(寺院の法要時休館となる場合あり),,なし,
